[
  {"id": "ord-001", "customer_id": "cust-001", "product_id": "prod-001", "status": "delivered", "size": "M", "quantity": 1, "total_price": 189.99, "shipping_address": "123 Market St, San Francisco, CA", "latitude": 37.7749, "longitude": -122.4194, "warehouse_id": "WH-CENTRAL", "ordered_at": "2026-03-20T10:00:00", "delivered_at": "2026-03-23T14:00:00"},
  {"id": "ord-002", "customer_id": "cust-002", "product_id": "prod-001", "status": "shipped", "size": "L", "quantity": 1, "total_price": 189.99, "shipping_address": "456 Oak Ave, Oakland, CA", "latitude": 37.8044, "longitude": -122.2712, "warehouse_id": "WH-CENTRAL", "ordered_at": "2026-03-24T09:00:00", "delivered_at": null},
  {"id": "ord-003", "customer_id": "cust-003", "product_id": "prod-001", "status": "pending", "size": "L", "quantity": 1, "total_price": 189.99, "shipping_address": "789 El Camino Real, Palo Alto, CA", "latitude": 37.4419, "longitude": -122.1430, "warehouse_id": "WH-CENTRAL", "ordered_at": "2026-03-25T11:00:00", "delivered_at": null},
  {"id": "ord-004", "customer_id": "cust-004", "product_id": "prod-002", "status": "delivered", "size": "10", "quantity": 1, "total_price": 149.99, "shipping_address": "321 Stevens Creek, San Jose, CA", "latitude": 37.3230, "longitude": -121.9886, "warehouse_id": "WH-CENTRAL", "ordered_at": "2026-03-18T08:30:00", "delivered_at": "2026-03-21T16:00:00"},
  {"id": "ord-005", "customer_id": "cust-005", "product_id": "prod-005", "status": "delivered", "size": "S", "quantity": 1, "total_price": 225.00, "shipping_address": "654 University Ave, Berkeley, CA", "latitude": 37.8716, "longitude": -122.2727, "warehouse_id": "WH-CENTRAL", "ordered_at": "2026-03-19T14:00:00", "delivered_at": "2026-03-22T11:00:00"},
  {"id": "ord-006", "customer_id": "cust-006", "product_id": "prod-004", "status": "delivered", "size": "32", "quantity": 1, "total_price": 98.00, "shipping_address": "987 Broadway, Redwood City, CA", "latitude": 37.4852, "longitude": -122.2364, "warehouse_id": "WH-CENTRAL", "ordered_at": "2026-03-17T10:00:00", "delivered_at": "2026-03-20T15:00:00"},
  {"id": "ord-007", "customer_id": "cust-007", "product_id": "prod-001", "status": "pending", "size": "L", "quantity": 1, "total_price": 189.99, "shipping_address": "246 Haight St, San Francisco, CA", "latitude": 37.7700, "longitude": -122.4476, "warehouse_id": "WH-CENTRAL", "ordered_at": "2026-03-25T16:00:00", "delivered_at": null},
  {"id": "ord-008", "customer_id": "cust-008", "product_id": "prod-008", "status": "delivered", "size": "10", "quantity": 1, "total_price": 174.99, "shipping_address": "135 Park Blvd, Fremont, CA", "latitude": 37.5485, "longitude": -121.9886, "warehouse_id": "WH-CENTRAL", "ordered_at": "2026-03-16T09:00:00", "delivered_at": "2026-03-19T13:00:00"},
  {"id": "ord-009", "customer_id": "cust-009", "product_id": "prod-005", "status": "pending", "size": "M", "quantity": 1, "total_price": 225.00, "shipping_address": "468 Hamilton Ave, Campbell, CA", "latitude": 37.2872, "longitude": -121.9500, "warehouse_id": "WH-CENTRAL", "ordered_at": "2026-03-25T10:30:00", "delivered_at": null},
  {"id": "ord-010", "customer_id": "cust-010", "product_id": "prod-003", "status": "delivered", "size": "L", "quantity": 1, "total_price": 34.99, "shipping_address": "753 Main St, Half Moon Bay, CA", "latitude": 37.4636, "longitude": -122.4286, "warehouse_id": "WH-CENTRAL", "ordered_at": "2026-03-21T12:00:00", "delivered_at": "2026-03-24T10:00:00"},
  {"id": "ord-011", "customer_id": "cust-011", "product_id": "prod-015", "status": "delivered", "size": "M", "quantity": 1, "total_price": 249.99, "shipping_address": "159 Sunset Blvd, Los Angeles, CA", "latitude": 34.0522, "longitude": -118.2437, "warehouse_id": "WH-CENTRAL", "ordered_at": "2026-03-15T08:00:00", "delivered_at": "2026-03-18T14:00:00"},
  {"id": "ord-012", "customer_id": "cust-012", "product_id": "prod-012", "status": "pending", "size": "M", "quantity": 1, "total_price": 195.00, "shipping_address": "357 Venice Blvd, Santa Monica, CA", "latitude": 34.0195, "longitude": -118.4912, "warehouse_id": "WH-CENTRAL", "ordered_at": "2026-03-25T09:00:00", "delivered_at": null},
  {"id": "ord-013", "customer_id": "cust-013", "product_id": "prod-002", "status": "shipped", "size": "8", "quantity": 1, "total_price": 149.99, "shipping_address": "852 Gaslamp Way, San Diego, CA", "latitude": 32.7157, "longitude": -117.1611, "warehouse_id": "WH-CENTRAL", "ordered_at": "2026-03-24T11:00:00", "delivered_at": null},
  {"id": "ord-014", "customer_id": "cust-014", "product_id": "prod-011", "status": "delivered", "size": "L", "quantity": 1, "total_price": 69.99, "shipping_address": "741 Pearl District, Portland, OR", "latitude": 45.5152, "longitude": -122.6784, "warehouse_id": "WH-CENTRAL", "ordered_at": "2026-03-19T15:00:00", "delivered_at": "2026-03-22T12:00:00"},
  {"id": "ord-015", "customer_id": "cust-015", "product_id": "prod-001", "status": "pending", "size": "M", "quantity": 1, "total_price": 189.99, "shipping_address": "369 Pike Place, Seattle, WA", "latitude": 47.6062, "longitude": -122.3321, "warehouse_id": "WH-CENTRAL", "ordered_at": "2026-03-25T14:00:00", "delivered_at": null},
  {"id": "ord-016", "customer_id": "cust-016", "product_id": "prod-010", "status": "delivered", "size": "L", "quantity": 1, "total_price": 129.99, "shipping_address": "951 Strip Ave, Las Vegas, NV", "latitude": 36.1699, "longitude": -115.1398, "warehouse_id": "WH-CENTRAL", "ordered_at": "2026-03-14T10:00:00", "delivered_at": "2026-03-17T16:00:00"},
  {"id": "ord-017", "customer_id": "cust-017", "product_id": "prod-007", "status": "delivered", "size": "M", "quantity": 1, "total_price": 64.99, "shipping_address": "147 Camelback Rd, Phoenix, AZ", "latitude": 33.4484, "longitude": -112.0740, "warehouse_id": "WH-CENTRAL", "ordered_at": "2026-03-20T09:00:00", "delivered_at": "2026-03-23T11:00:00"},
  {"id": "ord-018", "customer_id": "cust-018", "product_id": "prod-001", "status": "pending", "size": "L", "quantity": 1, "total_price": 189.99, "shipping_address": "258 16th St Mall, Denver, CO", "latitude": 39.7392, "longitude": -104.9903, "warehouse_id": "WH-CENTRAL", "ordered_at": "2026-03-26T08:00:00", "delivered_at": null},
  {"id": "ord-019", "customer_id": "cust-019", "product_id": "prod-014", "status": "delivered", "size": "9", "quantity": 1, "total_price": 89.99, "shipping_address": "369 Congress Ave, Austin, TX", "latitude": 30.2672, "longitude": -97.7431, "warehouse_id": "WH-CENTRAL", "ordered_at": "2026-03-22T13:00:00", "delivered_at": "2026-03-25T10:00:00"},
  {"id": "ord-020", "customer_id": "cust-020", "product_id": "prod-015", "status": "delivered", "size": "L", "quantity": 1, "total_price": 249.99, "shipping_address": "481 5th Ave, New York, NY", "latitude": 40.7128, "longitude": -74.0060, "warehouse_id": "WH-CENTRAL", "ordered_at": "2026-03-18T11:00:00", "delivered_at": "2026-03-21T15:00:00"},
  {"id": "ord-021", "customer_id": "cust-021", "product_id": "prod-001", "status": "pending", "size": "L", "quantity": 1, "total_price": 189.99, "shipping_address": "567 Valencia St, San Francisco, CA", "latitude": 37.7580, "longitude": -122.4214, "warehouse_id": "WH-CENTRAL", "ordered_at": "2026-03-25T15:00:00", "delivered_at": null},
  {"id": "ord-022", "customer_id": "cust-022", "product_id": "prod-005", "status": "pending", "size": "S", "quantity": 1, "total_price": 225.00, "shipping_address": "890 Santa Cruz Ave, Menlo Park, CA", "latitude": 37.4530, "longitude": -122.1817, "warehouse_id": "WH-CENTRAL", "ordered_at": "2026-03-25T13:00:00", "delivered_at": null},
  {"id": "ord-023", "customer_id": "cust-023", "product_id": "prod-004", "status": "shipped", "size": "32", "quantity": 1, "total_price": 98.00, "shipping_address": "234 Grand Ave, Oakland, CA", "latitude": 37.8116, "longitude": -122.2468, "warehouse_id": "WH-CENTRAL", "ordered_at": "2026-03-24T16:00:00", "delivered_at": null},
  {"id": "ord-024", "customer_id": "cust-024", "product_id": "prod-001", "status": "pending", "size": "L", "quantity": 1, "total_price": 189.99, "shipping_address": "678 Chestnut St, San Francisco, CA", "latitude": 37.8007, "longitude": -122.4382, "warehouse_id": "WH-CENTRAL", "ordered_at": "2026-03-26T09:00:00", "delivered_at": null},
  {"id": "ord-025", "customer_id": "cust-025", "product_id": "prod-002", "status": "pending", "size": "10", "quantity": 1, "total_price": 149.99, "shipping_address": "456 Castro St, Mountain View, CA", "latitude": 37.3861, "longitude": -122.0839, "warehouse_id": "WH-CENTRAL", "ordered_at": "2026-03-25T17:00:00", "delivered_at": null},
  {"id": "ord-026", "customer_id": "cust-003", "product_id": "prod-002", "status": "pending", "size": "9", "quantity": 1, "total_price": 149.99, "shipping_address": "789 El Camino Real, Palo Alto, CA", "latitude": 37.4419, "longitude": -122.1430, "warehouse_id": "WH-CENTRAL", "ordered_at": "2026-03-26T10:00:00", "delivered_at": null},
  {"id": "ord-027", "customer_id": "cust-005", "product_id": "prod-001", "status": "pending", "size": "L", "quantity": 1, "total_price": 189.99, "shipping_address": "654 University Ave, Berkeley, CA", "latitude": 37.8716, "longitude": -122.2727, "warehouse_id": "WH-CENTRAL", "ordered_at": "2026-03-26T08:30:00", "delivered_at": null},
  {"id": "ord-028", "customer_id": "cust-009", "product_id": "prod-004", "status": "pending", "size": "32", "quantity": 1, "total_price": 98.00, "shipping_address": "468 Hamilton Ave, Campbell, CA", "latitude": 37.2872, "longitude": -121.9500, "warehouse_id": "WH-CENTRAL", "ordered_at": "2026-03-26T07:00:00", "delivered_at": null},
  {"id": "ord-029", "customer_id": "cust-007", "product_id": "prod-005", "status": "pending", "size": "S", "quantity": 1, "total_price": 225.00, "shipping_address": "246 Haight St, San Francisco, CA", "latitude": 37.7700, "longitude": -122.4476, "warehouse_id": "WH-CENTRAL", "ordered_at": "2026-03-26T11:00:00", "delivered_at": null},
  {"id": "ord-030", "customer_id": "cust-010", "product_id": "prod-001", "status": "pending", "size": "L", "quantity": 1, "total_price": 189.99, "shipping_address": "753 Main St, Half Moon Bay, CA", "latitude": 37.4636, "longitude": -122.4286, "warehouse_id": "WH-CENTRAL", "ordered_at": "2026-03-26T12:00:00", "delivered_at": null}
]
